{"type":"FeatureCollection","features":[{"type":"Feature","properties":{"ID":1,"Name":"MRT Taipei City Hall Stataion(Exit 3)-2","Address":"The S.W. side of Road Zhongxiao East Road & Road Chung Yan."},"geometry":{"type":"Point","coordinates":[121.5679044,25.04085789]}},{"type":"Feature","properties":{"ID":2,"Name":"MRT S.Y.S Memorial Hall Stataion(Exit 2.)","Address":"Sec,4. Zhongxiao E.Rd/GuangFu S. Rd"},"geometry":{"type":"Point","coordinates":[121.55742,25.041254]}},{"type":"Feature","properties":{"ID":3,"Name":"Taipei City Hall","Address":"Taipei City Government Eastgate (Song Zhi Road)"},"geometry":{"type":"Point","coordinates":[121.5651694,25.03779722]}},{"type":"Feature","properties":{"ID":4,"Name":"Citizen Square","Address":"The N.W. side of Road Shifu & Road Song Shou."},"geometry":{"type":"Point","coordinates":[121.562325,25.03603611]}},{"type":"Feature","properties":{"ID":5,"Name":"Xingya Jr. High School","Address":"The S.E. side of Road Songren & Ln. 95, Songren Rd.."},"geometry":{"type":"Point","coordinates":[121.5686639,25.03656389]}},{"type":"Feature","properties":{"ID":6,"Name":"NAN SHAN PLAZA","Address":"The N.E. side of Road Song Zhi & Road Song Lian."},"geometry":{"type":"Point","coordinates":[121.565973,25.034047]}},{"type":"Feature","properties":{"ID":7,"Name":"Xinyi Square(Taipei 101)","Address":"The N.E. side of Road Song Zhi & Road Xinyi."},"geometry":{"type":"Point","coordinates":[121.5656194,25.03303889]}},{"type":"Feature","properties":{"ID":8,"Name":"TWTC Exhibition Hall 3","Address":"The S.E. side of Road Shifu & Road Song Shou."},"geometry":{"type":"Point","coordinates":[121.5636889,25.03521389]}},{"type":"Feature","properties":{"ID":9,"Name":"Songde","Address":"No.300, Songde Rd.(32)"},"geometry":{"type":"Point","coordinates":[121.57448,25.031785]}},{"type":"Feature","properties":{"ID":10,"Name":"Emergency Operations Center of Taipei City","Address":"No.2, Aly. 11, Ln. 391, Zhuangjing Rd."},"geometry":{"type":"Point","coordinates":[121.5661167,25.02866111]}},{"type":"Feature","properties":{"ID":11,"Name":"Sanchangli","Address":"The S.E. side of Road Guangfu South & Ln. 346, Sec. 1, Keelung Rd."},"geometry":{"type":"Point","coordinates":[121.55762,25.034937]}},{"type":"Feature","properties":{"ID":12,"Name":"Taipei Medical University","Address":"Aly. 59, Ln. 220, Wuxing St."},"geometry":{"type":"Point","coordinates":[121.561747,25.026679]}},{"type":"Feature","properties":{"ID":13,"Name":"Fude Park","Address":"The N.W. side of Road Dadao & St. Fude."},"geometry":{"type":"Point","coordinates":[121.58367,25.03809]}},{"type":"Feature","properties":{"ID":14,"Name":"Rongxing Park","Address":"The S.W. side of St.Wuchang & Road Longjiang."},"geometry":{"type":"Point","coordinates":[121.54037,25.06424]}},{"type":"Feature","properties":{"ID":15,"Name":"Raohe Night Market","Address":"The S.W. side of St.Wuchang & Road Longjiang."},"geometry":{"type":"Point","coordinates":[121.571885,25.049845]}},{"type":"Feature","properties":{"ID":16,"Name":"Songshan Vocational High School","Address":"The S.E. side of St. Linkou & St. Fude."},"geometry":{"type":"Point","coordinates":[121.579135,25.036084]}},{"type":"Feature","properties":{"ID":17,"Name":"Minsheng & Guangfu Intersection","Address":"The N.W. side of Road Guangfu S & Road Minsheng E."},"geometry":{"type":"Point","coordinates":[121.55514,25.05862]}},{"type":"Feature","properties":{"ID":18,"Name":"Taipei City Arts Promotion Office","Address":"No.25, Sec. 3, Bade Rd."},"geometry":{"type":"Point","coordinates":[121.552278,25.048268]}},{"type":"Feature","properties":{"ID":19,"Name":"Xiangshan Park","Address":"No.17, Ln. 153, Songren Rd"},"geometry":{"type":"Point","coordinates":[121.56981,25.02863]}},{"type":"Feature","properties":{"ID":20,"Name":"MRT Technology Bldg. Sta.","Address":"No.235, Sec. 2, Fusing S. Rd."},"geometry":{"type":"Point","coordinates":[121.543293,25.025896]}},{"type":"Feature","properties":{"ID":21,"Name":"Minsheng & Dunhua Intersection","Address":"The side of bus stop- Dunhua Minsheng Intersection."},"geometry":{"type":"Point","coordinates":[121.548982,25.057985]}},{"type":"Feature","properties":{"ID":22,"Name":"Songshan Rail Sta.","Address":"Bicycle parking lot- West exit in Songshan station"},"geometry":{"type":"Point","coordinates":[121.57845,25.048824]}},{"type":"Feature","properties":{"ID":23,"Name":"Dongxin Elementary School","Address":"A side entrance of Dongxin Elementery School(front of No. 62, Dongxin St.)"},"geometry":{"type":"Point","coordinates":[121.602798,25.055074]}},{"type":"Feature","properties":{"ID":24,"Name":"Xinyi & Jianguo Intersection","Address":"The N.S. side of Lianyun St. & Sec. 2, Xinyi Rd."},"geometry":{"type":"Point","coordinates":[121.53747,25.03293]}},{"type":"Feature","properties":{"ID":25,"Name":"Yongji & Songxin Intersection","Address":"The sidewalk- the S.W. side of Songxin Rd. & Yongji Rd."},"geometry":{"type":"Point","coordinates":[121.57205,25.04543]}},{"type":"Feature","properties":{"ID":26,"Name":"MRT Kunyang Sta. (Exit 1)","Address":"The side of parking lots in the MRT Kunyang station (exit 1)"},"geometry":{"type":"Point","coordinates":[121.592375,25.050142]}},{"type":"Feature","properties":{"ID":27,"Name":"MRT Nangang Exhibition Center Sta. (Exit 5)","Address":"The N.E side of Academia Rd. & Shihmin Blvd."},"geometry":{"type":"Point","coordinates":[121.61669,25.05469]}},{"type":"Feature","properties":{"ID":28,"Name":"Wuchang Park","Address":"The S.W side of Songlong Rd. & Hulin St."},"geometry":{"type":"Point","coordinates":[121.57467,25.04814]}},{"type":"Feature","properties":{"ID":29,"Name":"Jinshan & Aiguo Intersection","Address":"The S.W side of Aiguo St. & Jinshan Rd."},"geometry":{"type":"Point","coordinates":[121.52655,25.03164]}},{"type":"Feature","properties":{"ID":30,"Name":"Keelung & Changxing Intersection","Address":"The S.W side of Keelung Rd. & Changsing St."},"geometry":{"type":"Point","coordinates":[121.544352,25.017054]}},{"type":"Feature","properties":{"ID":31,"Name":"Xinhai & Xinsheng Intersection","Address":"Under the bridge- Sinhai Rd. & Shinsheng S. Rd."},"geometry":{"type":"Point","coordinates":[121.53456,25.022413]}},{"type":"Feature","properties":{"ID":32,"Name":"MRT Liuzhangli Sta.","Address":"The outside of the MRT exit and the side of Heping E. Rd."},"geometry":{"type":"Point","coordinates":[121.553161,25.023884]}},{"type":"Feature","properties":{"ID":33,"Name":"Zhonglun High School","Address":"The side of Ln. 91, Sec. 4, Bade Rd. ( beside Zhong-Lun High School)"},"geometry":{"type":"Point","coordinates":[121.56087,25.04878]}},{"type":"Feature","properties":{"ID":34,"Name":"MRT Xingtian Temple Sta. (Exit 1)","Address":"The side of Songjiang Rd.(the exit 1 of the MRT station of Xingtian Temple)"},"geometry":{"type":"Point","coordinates":[121.532934,25.058369]}},{"type":"Feature","properties":{"ID":35,"Name":"MRT Xingtian Temple Sta. (Exit 3)","Address":"The outside of the MRT station of Xingtian Temple."},"geometry":{"type":"Point","coordinates":[121.533302,25.059978]}},{"type":"Feature","properties":{"ID":36,"Name":"NTU Information Bldg.","Address":"Sec. 2, Xinghai Rd. (the outside ofLanguage Center of National Taiwan University)"},"geometry":{"type":"Point","coordinates":[121.54153,25.02101]}},{"type":"Feature","properties":{"ID":37,"Name":"MRT Dongmen Sta. (Exit 4)","Address":"Ren��ai Rd. & Lishuei St. "},"geometry":{"type":"Point","coordinates":[121.528988,25.0337]}},{"type":"Feature","properties":{"ID":38,"Name":"NTNU Library","Address":"The N. side of Heping E. Rd. & Shihda Rd."},"geometry":{"type":"Point","coordinates":[121.52889,25.02665]}},{"type":"Feature","properties":{"ID":39,"Name":"Nangang Park","Address":"The N.E. side of Sanchong Rd. & Ln. 88, Jingmao 2nd Rd."},"geometry":{"type":"Point","coordinates":[121.61422,25.058]}},{"type":"Feature","properties":{"ID":40,"Name":"Yucheng Park","Address":"The front of No. 247, Yucheng St."},"geometry":{"type":"Point","coordinates":[121.5864,25.04287]}},{"type":"Feature","properties":{"ID":41,"Name":"Academia Park","Address":"The S.W side of Ln. 12, Sec. 2, Academia Rd. & Aly. 58, Ln. 12, Sec. 2, Academia Rd."},"geometry":{"type":"Point","coordinates":[121.613706,25.047425]}},{"type":"Feature","properties":{"ID":42,"Name":"MRT Houshanpi Sta.(Exit 1)","Address":"The S.W side of Jhongsiao E. Rd. & Jhongpo N. Rd."},"geometry":{"type":"Point","coordinates":[121.58174,25.04431]}},{"type":"Feature","properties":{"ID":43,"Name":"Linyun Market","Address":"The N.E. side of St. Lingyun & Academia Rd."},"geometry":{"type":"Point","coordinates":[121.614154,25.035639]}},{"type":"Feature","properties":{"ID":44,"Name":"MRT Nangang Software Park Sta.(Exit 2)","Address":"The outside of the MRT station exit 2 of Taipei Nangang Exhibition Center"},"geometry":{"type":"Point","coordinates":[121.616187,25.05973]}},{"type":"Feature","properties":{"ID":45,"Name":"MRT Gongguan Sta.(Exit 2)","Address":"The N.W. side of Roosevelt Rd.& Sinhai Rd."},"geometry":{"type":"Point","coordinates":[121.534538,25.01476]}},{"type":"Feature","properties":{"ID":46,"Name":"Nangang Elementary School","Address":"The opposite of parking lots of exit Singdong St. (Nan-Gang Elementary School)"},"geometry":{"type":"Point","coordinates":[121.611027,25.05646]}},{"type":"Feature","properties":{"ID":47,"Name":"MRT Zhongxiao Xinsheng Sta.(Exit 3)","Address":"The intersection of Sec. 3, Zhongxiao E. Rd. & Ln. 10, Sec. 3, Zhongxiao E. Rd."},"geometry":{"type":"Point","coordinates":[121.533862,25.041924]}},{"type":"Feature","properties":{"ID":48,"Name":"Nangang Rail Sta.(Zhongxiao E.Rd.)","Address":"The intersection of Sec. 7, Zhongxiao E. Rd. & Ln. 415, Sec. 7, Zhongxiao E. Rd"},"geometry":{"type":"Point","coordinates":[121.608202,25.05247]}},{"type":"Feature","properties":{"ID":49,"Name":"Longmen Square","Address":"Sec. 1, Dunhua S. Rd. & Ln. 236, Sec. 1, Dunhua S. Rd."},"geometry":{"type":"Point","coordinates":[121.548252,25.040901]}},{"type":"Feature","properties":{"ID":50,"Name":"MinQuan Park","Address":"The intersection of Sec. 4, Mincyuan E. Rd. & Xinzhong St."},"geometry":{"type":"Point","coordinates":[121.560186,25.062002]}},{"type":"Feature","properties":{"ID":51,"Name":"Jianguo & Nongan Intersection","Address":"(Behind empty area of CPC coporation) Jianguo N. Rd. & Nong��an St."},"geometry":{"type":"Point","coordinates":[121.536775,25.065031]}},{"type":"Feature","properties":{"ID":52,"Name":"Jianguo & Changchun Intersection","Address":"The N. side of Jianguo N. Rd. & Changchun Rd."},"geometry":{"type":"Point","coordinates":[121.536925,25.054761]}},{"type":"Feature","properties":{"ID":53,"Name":"Bade Market","Address":"The intersection of Sec.1, Jianguo S. Rd. & Civic Blvd."},"geometry":{"type":"Point","coordinates":[121.536609,25.044781]}},{"type":"Feature","properties":{"ID":54,"Name":"Taipei Public Library","Address":"The N.E. side of Sec. 2, Jianguo S. Rd. & Ln. 151, Sec. 2, Jianguo S. Rd."},"geometry":{"type":"Point","coordinates":[121.538073,25.028798]}},{"type":"Feature","properties":{"ID":55,"Name":"Taipei Stadium","Address":"No.3, Dunhua N. Rd."},"geometry":{"type":"Point","coordinates":[121.549408,25.049505]}},{"type":"Feature","properties":{"ID":56,"Name":"Renai & Linsen Intersection","Address":"The N.E. side of Linsen S. Rd & Sec. 1, Ren��ai Rd.(42)"},"geometry":{"type":"Point","coordinates":[121.522334,25.038954]}},{"type":"Feature","properties":{"ID":57,"Name":"Xinsheng & Heping Intersection","Address":"The N.E. side of Sec. 2, Xinsheng S. Rd. & Sec. 2, Heping E. Rd"},"geometry":{"type":"Point","coordinates":[121.53519,25.026217]}},{"type":"Feature","properties":{"ID":58,"Name":"MRT Shandao Temple Sta(Exit 1)","Address":"The N.E. side of Tianjin St. & Sec. 1, Zhongxiao E. Rd."},"geometry":{"type":"Point","coordinates":[121.5222,25.045267]}},{"type":"Feature","properties":{"ID":59,"Name":"Linsen Park","Address":"Linsen N. Rd. & Sec. 1, Nanjing E. Rd."},"geometry":{"type":"Point","coordinates":[121.525805,25.052227]}},{"type":"Feature","properties":{"ID":60,"Name":"Zhongshan Dist. Admin. Office","Address":"Songjiang Rd. & Nong��an St."},"geometry":{"type":"Point","coordinates":[121.533487,25.064317]}},{"type":"Feature","properties":{"ID":61,"Name":"N.T.U.S.T","Address":"The intersection of Sec. 4, Keelung Rd. & Ln. 73, Sec. 4, Keelung Rd"},"geometry":{"type":"Point","coordinates":[121.539723,25.0131]}},{"type":"Feature","properties":{"ID":62,"Name":"Nanchang Park","Address":"Sec. 1, Heping W. Rd.& Nanchang Rd."},"geometry":{"type":"Point","coordinates":[121.520258,25.026827]}},{"type":"Feature","properties":{"ID":63,"Name":"Taipei City Hospital Renai Branch","Address":"Da��an Rd. & Sec. 4, Sinyi Rd."},"geometry":{"type":"Point","coordinates":[121.545632,25.037569]}},{"type":"Feature","properties":{"ID":64,"Name":"National Central Library","Address":"The S.W. side of Zhongshan S. Rd. & Guiyang St."},"geometry":{"type":"Point","coordinates":[121.517029,25.037773]}},{"type":"Feature","properties":{"ID":65,"Name":"Youth Park(Exit 3)","Address":"The E. side of Qingnian Rd. & Ln. 106, Qingnian Rd."},"geometry":{"type":"Point","coordinates":[121.502708,25.022725]}},{"type":"Feature","properties":{"ID":66,"Name":"NTNU Gongguan Campus","Address":"The side of Tingzhou Rd. (National Taiwan Normal University- Gongguan Campus)"},"geometry":{"type":"Point","coordinates":[121.537188,25.007528]}},{"type":"Feature","properties":{"ID":67,"Name":"MRT Nat��l Taiwan U. Hospital Sta.(Exit 4)","Address":"The S.W. side of Gongyuan Rd. & Siangyang Rd."},"geometry":{"type":"Point","coordinates":[121.516428,25.042973]}},{"type":"Feature","properties":{"ID":68,"Name":"Guoxing & Qingnian Intersection","Address":"The S.W. side of Guoxing Rd. & Qingnian Rd."},"geometry":{"type":"Point","coordinates":[121.506536,25.025865]}},{"type":"Feature","properties":{"ID":69,"Name":"Xingfong Park","Address":"The N.W. side of Ln. 123, Sec. 2, Xinglong Rd. & Sec. 2, Xinglong Rd."},"geometry":{"type":"Point","coordinates":[121.547778,24.999837]}},{"type":"Feature","properties":{"ID":70,"Name":"MRT Taipei 101/World Trade Center Sta.","Address":"The S.E. side of Zhuangjing Rd. & Sec. 5, Xinyi Rd."},"geometry":{"type":"Point","coordinates":[121.561645,25.032752]}},{"type":"Feature","properties":{"ID":71,"Name":"MRT Xinyi Anhe Sta.(Exit.4)","Address":"The S.W. side of Tonghua St. & Sec. 4, Xinyi Road., Daan Dist."},"geometry":{"type":"Point","coordinates":[121.554204,25.032985]}},{"type":"Feature","properties":{"ID":72,"Name":"Xinsheng & Changan Intersection","Address":"The intersection of Sec. 1, Xinsheng N. Rd. & Sec. 2, Chang��an E. Rd."},"geometry":{"type":"Point","coordinates":[121.529346,25.048611]}},{"type":"Feature","properties":{"ID":73,"Name":"Jiuquan & Yanping Intersection","Address":"The N.W. side of Sec. 4, Yanping N. Rd. & Jiuquan St."},"geometry":{"type":"Point","coordinates":[121.510195,25.072228]}},{"type":"Feature","properties":{"ID":74,"Name":"Xinyi & Lianyun Intersection","Address":"The N.S. side of Lianyun St. & Sec. 2, Xinyi Rd."},"geometry":{"type":"Point","coordinates":[121.530547,25.033817]}},{"type":"Feature","properties":{"ID":75,"Name":"Keelung & Guangfu Intersection","Address":"The intersection of Sec. 2, Keelung Rd. & Guangfu S. Rd."},"geometry":{"type":"Point","coordinates":[121.557635,25.0300508]}},{"type":"Feature","properties":{"ID":76,"Name":"Xinsheng & Changchun Intersection","Address":"Under the bridge- the intersection of Sec. 2, Xinsheng N. Rd. & Ln. 68, Sec. 2, Xinsheng N. Rd."},"geometry":{"type":"Point","coordinates":[121.527522,25.056387]}},{"type":"Feature","properties":{"ID":77,"Name":"Minsheng Activity Center","Address":"The N.W. side of Sec. 5, Minsheng E. Rd. & Sanmin Rd."},"geometry":{"type":"Point","coordinates":[121.56297,25.059147]}},{"type":"Feature","properties":{"ID":78,"Name":"MRT Yuanshan Sta. (Exit 2)","Address":"The S.E. side of Sec. 3, Chengde Rd. & Kulun St."},"geometry":{"type":"Point","coordinates":[121.519287,25.071824]}},{"type":"Feature","properties":{"ID":79,"Name":"MRT Minquan W.Rd. Sta.(Exit 3)","Address":"The opposite of No.37, Ln. 70, Minquan W. Rd."},"geometry":{"type":"Point","coordinates":[121.520205,25.061285]}},{"type":"Feature","properties":{"ID":80,"Name":"Huajiang High School","Address":"The N.E. side of Dongyuan St. & Ln. 35, Dongyuan St."},"geometry":{"type":"Point","coordinates":[121.495869,25.02751]}},{"type":"Feature","properties":{"ID":81,"Name":"MRT Taipower Building Sta. (Exit 2)","Address":"The intersection of Roosevelt Rd. & Xinhai Rd. (Gu Ting Elementary School) "},"geometry":{"type":"Point","coordinates":[121.528552,25.020547]}},{"type":"Feature","properties":{"ID":82,"Name":"MRT Ximen Sta.(Exit 3)","Address":"The S.E. side of Sec. 1, Zhonghua Rd. & Baoqing Rd."},"geometry":{"type":"Point","coordinates":[121.508693,25.041778]}},{"type":"Feature","properties":{"ID":83,"Name":"MRT Daan Park Sta.","Address":"The S. side of Ln. 31, Sec. 3, Xinyi Rd. & Sec. 3, Xinyi Rd."},"geometry":{"type":"Point","coordinates":[121.534236,25.033344]}},{"type":"Feature","properties":{"ID":84,"Name":"Fuhua Garden New Village(City)","Address":"The S.E. side of No.115, Xizang Rd. & Xizang Rd."},"geometry":{"type":"Point","coordinates":[121.502899,25.029705]}},{"type":"Feature","properties":{"ID":85,"Name":"Xinyi & Dunhua Intersection","Address":"The N.E. side of Sec. 4, Xinyi Rd. & Sec. 1, Dunhua S. Rd."},"geometry":{"type":"Point","coordinates":[121.54911,25.033362]}},{"type":"Feature","properties":{"ID":86,"Name":"Minquan & Fuxing Intersection","Address":"The N.E. side of Fuxing N. Rd. & Sec. 3, Minquan E. Rd."},"geometry":{"type":"Point","coordinates":[121.545138,25.062344]}},{"type":"Feature","properties":{"ID":87,"Name":"MRT Daan Sta.","Address":"The S.W. side of Fuxing S. Rd. & Sec. 3 Xinyi Rd."},"geometry":{"type":"Point","coordinates":[121.543057,25.033078]}},{"type":"Feature","properties":{"ID":88,"Name":"MRT Xiangshan Sta.","Address":"The N.W. side of Sec. 5, Xinyi Rd. & Ln. 91, Sec. 5, Xinyi Rd."},"geometry":{"type":"Point","coordinates":[121.57087,25.032922]}},{"type":"Feature","properties":{"ID":89,"Name":"Heping Chongqing Intersection","Address":"The N.E. side of Sec. 3, Chongqing S. Rd. & Sec. 1, Heping W. Rd."},"geometry":{"type":"Point","coordinates":[121.516385,25.027323]}},{"type":"Feature","properties":{"ID":90,"Name":"Laosong Elementary School","Address":"The S.E. side of Kangding Rd. & Guilin Rd."},"geometry":{"type":"Point","coordinates":[121.501708,25.037783]}},{"type":"Feature","properties":{"ID":91,"Name":"Taipei Fine Arts Museum","Address":"The S.W. side of Sec. 3, Zhongshan N. Rd. & Jiuquan St."},"geometry":{"type":"Point","coordinates":[121.523268,25.070629]}},{"type":"Feature","properties":{"ID":92,"Name":"Kaifong & Xining Intersection","Address":"The N.E. side of Sec. 2, Kaifeng St. & Xining S. Rd."},"geometry":{"type":"Point","coordinates":[121.507169,25.046618]}},{"type":"Feature","properties":{"ID":93,"Name":"Wu Xing Bus Station.","Address":"The intersection of Songren Rd. & Wuxing St."},"geometry":{"type":"Point","coordinates":[121.569836,25.023877]}},{"type":"Feature","properties":{"ID":94,"Name":"MRT Jingmei Sta.","Address":"The intersectionof Sec. 6, Roosevelt Rd. & Jingzhong St."},"geometry":{"type":"Point","coordinates":[121.541059,24.993254]}},{"type":"Feature","properties":{"ID":95,"Name":"Dongyuan Elementary School","Address":"The S.E. side of Dongyuan St. & Ln. 344, Wanda Rd."},"geometry":{"type":"Point","coordinates":[121.497679,25.023393]}},{"type":"Feature","properties":{"ID":96,"Name":"Sanmin Park","Address":"The S.E. side of Fuyuan St. & Fujin St."},"geometry":{"type":"Point","coordinates":[121.566558,25.061567]}},{"type":"Feature","properties":{"ID":97,"Name":"MRT Jiantan Sta.(Exit 2)","Address":"The opposite of No.18, Jihe Rd."},"geometry":{"type":"Point","coordinates":[121.524721,25.082825]}},{"type":"Feature","properties":{"ID":98,"Name":"Roosevelt & Jinglong Intersection","Address":"The intersection of Sec. 6, Roosevelt Rd. & Jinglong St. (the S.E. side)"},"geometry":{"type":"Point","coordinates":[121.540197,24.999378]}},{"type":"Feature","properties":{"ID":99,"Name":"MRT Shuanglian Sta. (Exit 2)","Address":"The N.E. side of Minsheng W. Rd. & Wanquan St."},"geometry":{"type":"Point","coordinates":[121.520711,25.057866]}},{"type":"Feature","properties":{"ID":100,"Name":"Jinshen & Civic Blvd. Intersection","Address":"The S. side of Jinshan N. Rd. & Sec. 3, Civic Blvd."},"geometry":{"type":"Point","coordinates":[121.530697,25.045753]}},{"type":"Feature","properties":{"ID":101,"Name":"Huashan 1914�ECreative Park","Address":"Front of No.41, Sec. 2, Zhongxiao E. Rd."},"geometry":{"type":"Point","coordinates":[121.528487,25.043668]}},{"type":"Feature","properties":{"ID":102,"Name":"Taipei City Hakka Cultural Park","Address":"The intersection of Shida Rd. & Tingzhou Rd."},"geometry":{"type":"Point","coordinates":[121.525322,25.02043]}},{"type":"Feature","properties":{"ID":103,"Name":"Wanhua Rail Sta.","Address":"No.83, Bangka Blvd. (oppsite)"},"geometry":{"type":"Point","coordinates":[121.503028,25.033639]}},{"type":"Feature","properties":{"ID":104,"Name":"Taipei Pot Plant Auction","Address":"The N.W. side of Wansheng St. Sec. 1, Xinglong Rd."},"geometry":{"type":"Point","coordinates":[121.54074,25.004023]}},{"type":"Feature","properties":{"ID":105,"Name":"Emei Parking Lot","Address":"The S.E. side of Kunming St. & Ln. 50, Xining S. Rd. "},"geometry":{"type":"Point","coordinates":[121.505409,25.044412]}},{"type":"Feature","properties":{"ID":106,"Name":"Xiyuan & Bangka Intersection","Address":"The S.W. side of Sec. 2, Xiyuan Rd. & Bangka Blvd."},"geometry":{"type":"Point","coordinates":[121.497674,25.032932]}},{"type":"Feature","properties":{"ID":107,"Name":"MRT Xiaonanmen Sta. (Exit 1)","Address":"The intersection of Bo��ai Rd. & Aiguo W. Rd."},"geometry":{"type":"Point","coordinates":[121.509422,25.036402]}},{"type":"Feature","properties":{"ID":108,"Name":"Taipei Confucius Temple","Address":"The N.E. side of Ln. 59, Hami St. & Hami St."},"geometry":{"type":"Point","coordinates":[121.515843,25.073306]}},{"type":"Feature","properties":{"ID":109,"Name":"Lin An-tai Historical House","Address":"The N. side of Jilin Rd. & Minzu E. Rd."},"geometry":{"type":"Point","coordinates":[121.530805,25.071606]}},{"type":"Feature","properties":{"ID":110,"Name":"Wenhu Elementary School","Address":"The N.E. side of Ln. 21, Wenhu St. & Wenhu St."},"geometry":{"type":"Point","coordinates":[121.560888,25.086376]}},{"type":"Feature","properties":{"ID":111,"Name":"MRT Zhongxiao Fuxing Sta.(Exit 2)","Address":"The N.W. side of Sec. 1, Fuxing S. Rd. & Aly. 13, Ln. 123, Sec. 3, Ren��ai Rd."},"geometry":{"type":"Point","coordinates":[121.543497,25.040184]}},{"type":"Feature","properties":{"ID":112,"Name":"MRT Xinbeitou Sta.","Address":"Daye Rd. & Zhonghe St.  Intersection"},"geometry":{"type":"Point","coordinates":[121.503124,25.137456]}},{"type":"Feature","properties":{"ID":113,"Name":"Renai & Yixian Intersection","Address":"Sec. 4, Ren��ai Rd. & Yixian Rd."},"geometry":{"type":"Point","coordinates":[121.561178,25.037724]}},{"type":"Feature","properties":{"ID":114,"Name":"Lanya Park","Address":"Sec. 2, Zhongcheng Rd. & Ln. 40, Sec. 2, Zhongcheng Rd."},"geometry":{"type":"Point","coordinates":[121.530386,25.109908]}},{"type":"Feature","properties":{"ID":115,"Name":"Taipei Bus Sta.","Address":"Sec. 1, Zhongshan N. Rd. & Sec. 1, Civic Blvd."},"geometry":{"type":"Point","coordinates":[121.520526,25.048222]}},{"type":"Feature","properties":{"ID":116,"Name":"Fulin Park","Address":"Zhicheng St. & Zhongzheng Rd."},"geometry":{"type":"Point","coordinates":[121.530215,25.096122]}},{"type":"Feature","properties":{"ID":117,"Name":"MRT Beitou Sta.","Address":"Ln. 2, Guangming Rd. & Guangming Rd.  Intersection"},"geometry":{"type":"Point","coordinates":[121.498618,25.132581]}},{"type":"Feature","properties":{"ID":118,"Name":"Daye & Datong Intersection","Address":"Daye Rd. & Datong St.  Intersection"},"geometry":{"type":"Point","coordinates":[121.499152,25.136929]}},{"type":"Feature","properties":{"ID":119,"Name":"MRT Jiannan Rd. Sta.(Exit 2)","Address":"Jingye 2nd Rd. & Zhifu Rd."},"geometry":{"type":"Point","coordinates":[121.555116,25.08418]}},{"type":"Feature","properties":{"ID":120,"Name":"MRT Longshan Temple Sta. (Exit. 1)","Address":"Sec. 3, Heping W. Rd. & Ln. 109, Sec. 3, Heping W. Rd."},"geometry":{"type":"Point","coordinates":[121.50026,25.035479]}},{"type":"Feature","properties":{"ID":121,"Name":"Longjiang & Nanjing Intersection","Address":"No.100, Longjiang Rd."},"geometry":{"type":"Point","coordinates":[121.540568,25.05298]}},{"type":"Feature","properties":{"ID":122,"Name":"MRT Gangqian Sta. (Exit 2)","Address":"Sec. 1, Neihu Rd./Gangqian Rd. (southeast)"},"geometry":{"type":"Point","coordinates":[121.57584,25.079666]}},{"type":"Feature","properties":{"ID":123,"Name":"Tienmu Sports Park","Address":"Sec.2,Zhongcheng Rd./Ln.207,Sec.2,Zhongcheng Rd."},"geometry":{"type":"Point","coordinates":[121.534136,25.116325]}},{"type":"Feature","properties":{"ID":124,"Name":"Zenhua Park","Address":"No.36, Zhenhua St."},"geometry":{"type":"Point","coordinates":[121.518163,25.115863]}},{"type":"Feature","properties":{"ID":125,"Name":"Huaxi Park","Address":"Huaxi St. & Guilin Rd."},"geometry":{"type":"Point","coordinates":[121.498495,25.038609]}},{"type":"Feature","properties":{"ID":126,"Name":"Dunhua & Keelung Intersection","Address":"Sec. 2, Dunhua S. Rd. & Sec. 2, Keelung Rd."},"geometry":{"type":"Point","coordinates":[121.548336,25.022073]}},{"type":"Feature","properties":{"ID":127,"Name":"Donghu Junior High School","Address":"Kangle St./Ln. 125, Kangle St."},"geometry":{"type":"Point","coordinates":[121.619521,25.073277]}},{"type":"Feature","properties":{"ID":128,"Name":"Chengong Public Housing","Address":"Ln. 198, Siwei Rd./Ln. 1, Sec. 3, Heping E. Rd"},"geometry":{"type":"Point","coordinates":[121.546726,25.026808]}},{"type":"Feature","properties":{"ID":129,"Name":"MRT Wende Sta. (Exit 2)","Address":"Ln. 220, Wende Rd./Wende Rd."},"geometry":{"type":"Point","coordinates":[121.58456,25.078424]}},{"type":"Feature","properties":{"ID":130,"Name":"Roosevelt & Ningbo E. St. Intersection","Address":"Sec. 1, Roosevelt Rd. & Ningbo E. St."},"geometry":{"type":"Point","coordinates":[121.519411,25.031445]}},{"type":"Feature","properties":{"ID":131,"Name":"Zhouzhi Park No.2","Address":"Opposite to the parking space No.500, Ruiguang Rd."},"geometry":{"type":"Point","coordinates":[121.568688,25.079322]}},{"type":"Feature","properties":{"ID":132,"Name":"Roosevelt & Xinsheng S. Intersection","Address":"Sec. 4, Roosevelt Rd./Sec. 3, Xinsheng S. Rd."},"geometry":{"type":"Point","coordinates":[121.5331757,25.01603085]}},{"type":"Feature","properties":{"ID":133,"Name":"Lanxing Park","Address":"Sec.6, Zhongshan N. Rd / Shidong Rd"},"geometry":{"type":"Point","coordinates":[121.525888,25.111839]}},{"type":"Feature","properties":{"ID":134,"Name":"MRT Zhishan Sta.(Exit 2)","Address":"Fuhua Rd. / Ln. 162, Fuhua Rd."},"geometry":{"type":"Point","coordinates":[121.522629,25.10336]}},{"type":"Feature","properties":{"ID":135,"Name":"MRT Shipai Sta. (Exit 2)","Address":"Sec. 1, Donghua St. / Yumin 2nd Rd."},"geometry":{"type":"Point","coordinates":[121.515677,25.114513]}},{"type":"Feature","properties":{"ID":136,"Name":"NTUNHS","Address":"Ln. 130, Sec. 2, Shipai Rd. / Sec. 2, Shipai Rd."},"geometry":{"type":"Point","coordinates":[121.517512,25.118049]}},{"type":"Feature","properties":{"ID":137,"Name":"Nat��l Defense U.","Address":"Sec. 2, Zhongyang N. Rd. / Sec. 2, Fengnian Rd."},"geometry":{"type":"Point","coordinates":[121.493066,25.137976]}},{"type":"Feature","properties":{"ID":138,"Name":"MRT Yongchun Sta. (Exit 2)","Address":"No.420, Sec. 5, Zhongxiao E. Rd."},"geometry":{"type":"Point","coordinates":[121.575372,25.040558]}},{"type":"Feature","properties":{"ID":139,"Name":"Yongle Market","Address":"Minle St., Datong Dist./Ln. 233, Nanjing W. Rd."},"geometry":{"type":"Point","coordinates":[121.510549,25.054501]}},{"type":"Feature","properties":{"ID":140,"Name":"MRT Daqiaotou Sta. (Exit 2)","Address":"Minquan W. Rd./ Sec. 3, Chongqing N. Rd."},"geometry":{"type":"Point","coordinates":[121.512909,25.063404]}},{"type":"Feature","properties":{"ID":141,"Name":"Wenshan Dist. Admin. Center","Address":"No.220, Sec. 3, Muzha Rd."},"geometry":{"type":"Point","coordinates":[121.569984,24.989902]}},{"type":"Feature","properties":{"ID":142,"Name":"MRT Muzha Sta.","Address":"No.18, Ln. 82, Sec. 4, Muzha Rd."},"geometry":{"type":"Point","coordinates":[121.574214,24.997747]}},{"type":"Feature","properties":{"ID":143,"Name":"MRT Taipei Zoo Sta.(Exit 2)","Address":"No.28, Sec. 2, Xinguang Rd."},"geometry":{"type":"Point","coordinates":[121.578752,24.997659]}},{"type":"Feature","properties":{"ID":144,"Name":"Nat��l Chengchi U.","Address":"No.6, Ln. 16, Wanshou Rd."},"geometry":{"type":"Point","coordinates":[121.576536,24.988363]}},{"type":"Feature","properties":{"ID":145,"Name":"Shude Park","Address":"Dalong St. / Ln. 85, Dalong St."},"geometry":{"type":"Point","coordinates":[121.516149,25.066688]}},{"type":"Feature","properties":{"ID":146,"Name":"MRT Shilin Sta.(Exit 2)","Address":"Ln. 247, Zhongzheng Rd. / Ln. 505, Sec. 5, Zhongshan N. Rd."},"geometry":{"type":"Point","coordinates":[121.526556,25.092546]}},{"type":"Feature","properties":{"ID":147,"Name":"Shilin Sports Center","Address":"Sec. 4, Chengde Rd./Danan Rd."},"geometry":{"type":"Point","coordinates":[121.521814,25.089175]}},{"type":"Feature","properties":{"ID":148,"Name":"MRT Mingde Sta.","Address":"Ln. 46, Sec. 1, Zhiyuan 1st Rd./Sec. 1, Xi��an St."},"geometry":{"type":"Point","coordinates":[121.518316,25.110331]}},{"type":"Feature","properties":{"ID":149,"Name":"Beitou Sports Center","Address":"No.100, Ln. 39, Sec. 1, Shipai Rd."},"geometry":{"type":"Point","coordinates":[121.509621,25.116665]}},{"type":"Feature","properties":{"ID":150,"Name":"Songde Park","Address":"No.20, Ln. 168, Songde Rd."},"geometry":{"type":"Point","coordinates":[121.57343,25.036568]}},{"type":"Feature","properties":{"ID":151,"Name":"Examination Yuan","Address":"Shiyuan Rd. / Sec. 1, Muzha Rd., "},"geometry":{"type":"Point","coordinates":[121.549827,24.987507]}},{"type":"Feature","properties":{"ID":152,"Name":"Bailing Elementary School","Address":"Ln. 100, Qiangang St. / Qiangang St."},"geometry":{"type":"Point","coordinates":[121.519175,25.08521]}},{"type":"Feature","properties":{"ID":153,"Name":"Jiang Wei-shui Memorial Park","Address":"No.51, Jinxi St., Datong Dist."},"geometry":{"type":"Point","coordinates":[121.516299,25.059885]}},{"type":"Feature","properties":{"ID":154,"Name":"Zhongzheng & Jihe Intersection","Address":"No.420, Zhongzheng Rd."},"geometry":{"type":"Point","coordinates":[121.519867,25.093396]}},{"type":"Feature","properties":{"ID":155,"Name":"Ruiguang & Gangqian Intersection","Address":"Ruiguang Rd. / Gangqian Rd."},"geometry":{"type":"Point","coordinates":[121.57505,25.076193]}},{"type":"Feature","properties":{"ID":156,"Name":"Donghu Elementary School","Address":"Donghu Rd. / Ln. 119, Donghu Rd."},"geometry":{"type":"Point","coordinates":[121.61538,25.06853]}},{"type":"Feature","properties":{"ID":157,"Name":"Lishan Elementary School","Address":"Ln. 411, Sec. 1, Neihu Rd. / Aly. 19, Ln. 411, Sec. 1, Neihu Rd."},"geometry":{"type":"Point","coordinates":[121.571467,25.082703]}},{"type":"Feature","properties":{"ID":158,"Name":"MRT Donghu Sta.","Address":"Ln. 315, Ankang Rd./Ln. 14, Wufen St."},"geometry":{"type":"Point","coordinates":[121.61355,25.067026]}},{"type":"Feature","properties":{"ID":159,"Name":"MRT Xihu Sta. (Exit 1)","Address":"Ln. 9, Sec. 1, Huanshan Rd./Ln. 285, Sec. 1, Neihu Rd."},"geometry":{"type":"Point","coordinates":[121.566695,25.082866]}},{"type":"Feature","properties":{"ID":161,"Name":"Dafong Park","Address":"Huanggang Rd. / Daxing St."},"geometry":{"type":"Point","coordinates":[121.503768,25.131143]}},{"type":"Feature","properties":{"ID":162,"Name":"MRT Zhongshan Elementary School sta.(Exit 4)","Address":"Sec. 1, Minquan E. Rd./Sec. 3, Xinsheng N. Rd"},"geometry":{"type":"Point","coordinates":[121.52772,25.062924]}},{"type":"Feature","properties":{"ID":163,"Name":"MRT Linguang Sta.","Address":"Sec. 3, Heping E. Rd./Ln. 416,Sec. 3, Heping E. Rd."},"geometry":{"type":"Point","coordinates":[121.559279,25.018097]}},{"type":"Feature","properties":{"ID":164,"Name":"MRT Qiyan Sta.","Address":"Sec. 1, Beitou Rd./Sec. 2, Sanhe St."},"geometry":{"type":"Point","coordinates":[121.500801,25.126286]}},{"type":"Feature","properties":{"ID":165,"Name":"MRT Qilian Sta. (Exit 2)","Address":"Sec. 2, Xi'an St./Ln. 257,Sec. 2, Linong St."},"geometry":{"type":"Point","coordinates":[121.505693,25.120788]}},{"type":"Feature","properties":{"ID":166,"Name":"Taipei JingMei Girls High School","Address":"Sec. 3, Muxin Rd./Yishou St."},"geometry":{"type":"Point","coordinates":[121.556177,24.980602]}},{"type":"Feature","properties":{"ID":167,"Name":"Taipei Astronomical Museum","Address":"No.363, Jihe Rd."},"geometry":{"type":"Point","coordinates":[121.518046,25.095714]}},{"type":"Feature","properties":{"ID":168,"Name":"Heti Elementary School","Address":"No.1, Aly. 23, Lane 12, Jinmen St."},"geometry":{"type":"Point","coordinates":[121.522855,25.02288]}},{"type":"Feature","properties":{"ID":169,"Name":"Taipei Botanical Garden","Address":"No.100, Sec. 2, Heping W. Rd."},"geometry":{"type":"Point","coordinates":[121.509813,25.030015]}},{"type":"Feature","properties":{"ID":170,"Name":"XinDong Park","Address":"Sec. 5, Minsheng E. Rd./Tayou Rd."},"geometry":{"type":"Point","coordinates":[121.568883,25.059245]}},{"type":"Feature","properties":{"ID":171,"Name":"Taipei Wen Shan Sports Center","Address":"Sec. 3, Xinglong Rd./Aly. 8, Ln. 192, Sec. 3, Xinglong Rd."},"geometry":{"type":"Point","coordinates":[121.559651,24.996842]}},{"type":"Feature","properties":{"ID":172,"Name":"MRT Nanjing Sanmin Sta. (Exit 1)","Address":"Sec. 5, Nanjing E. Rd./Sanmin Rd."},"geometry":{"type":"Point","coordinates":[121.562891,25.051562]}},{"type":"Feature","properties":{"ID":173,"Name":"MRT Songjiang Nanjing Sta. (Exit 7)","Address":"Sec. 2, Nanjing E. Rd./Sec. 2, Nanjing E. Rd."},"geometry":{"type":"Point","coordinates":[121.533211,25.052181]}},{"type":"Feature","properties":{"ID":174,"Name":"MRT Taipei Arena Sta. (Exit 5)","Address":"Sec. 4, Nanjing E. Rd./Jiankang Rd."},"geometry":{"type":"Point","coordinates":[121.553057,25.051702]}},{"type":"Feature","properties":{"ID":175,"Name":"MRT Nanjing Fuxing Sta. (Exit 5)","Address":"Sec. 3, Nanjing E. Rd./Ln. 256, Sec. 3, Nanjing E. Rd."},"geometry":{"type":"Point","coordinates":[121.544847,25.051618]}},{"type":"Feature","properties":{"ID":176,"Name":"Xingan Huacheng Community","Address":"Xing��an St./Liaoning St."},"geometry":{"type":"Point","coordinates":[121.542318,25.055997]}},{"type":"Feature","properties":{"ID":177,"Name":"Hulu Elementary School","Address":"Sec. 3, Huanhe N. Rd./Hulu St."},"geometry":{"type":"Point","coordinates":[121.507495,25.082538]}},{"type":"Feature","properties":{"ID":178,"Name":"Yanping Public Housing","Address":"No.40, Ln. 1, Sec. 5, Yanping N. Rd."},"geometry":{"type":"Point","coordinates":[121.510306,25.078908]}},{"type":"Feature","properties":{"ID":179,"Name":"Nangang Park","Address":"No.383, Fude St."},"geometry":{"type":"Point","coordinates":[121.59073,25.041355]}},{"type":"Feature","properties":{"ID":180,"Name":"Fuhua Market","Address":"Sec. 6, Minquan E. Rd./Ln. 180, Sec. 6, Minquan E. Rd."},"geometry":{"type":"Point","coordinates":[121.592654,25.06877]}},{"type":"Feature","properties":{"ID":181,"Name":"JianGuo & Heping Intersection","Address":"Sec. 2, Jianguo S. Rd./Sec. 2, Heping E. Rd."},"geometry":{"type":"Point","coordinates":[121.537383,25.02585]}},{"type":"Feature","properties":{"ID":182,"Name":"MRT Guting Sta. (Exit 2)","Address":"Sec. 2, Roosevelt Rd./Ln. 174, Sec. 2, Roosevelt Rd."},"geometry":{"type":"Point","coordinates":[121.523537,25.0253]}},{"type":"Feature","properties":{"ID":183,"Name":"Yuanhuan","Address":"Nanjing W. Rd./Sec. 1, Chongqing N. Rd."},"geometry":{"type":"Point","coordinates":[121.514179,25.05379]}},{"type":"Feature","properties":{"ID":184,"Name":"Jiantan Community","Address":"No.143, Tongbei St."},"geometry":{"type":"Point","coordinates":[121.537892,25.084759]}},{"type":"Feature","properties":{"ID":185,"Name":"LiuGong Park","Address":"Ln. 75, Sec. 1/Ln. 75, Sec. 1, Da��an Rd."},"geometry":{"type":"Point","coordinates":[121.54605,25.042342]}},{"type":"Feature","properties":{"ID":186,"Name":"University of Taipei","Address":"Aiguo W. Rd./Gongyuan Rd."},"geometry":{"type":"Point","coordinates":[121.514218,25.035414]}},{"type":"Feature","properties":{"ID":187,"Name":"Renai & Yanji Intersection","Address":"Sec. 4, Ren��ai Rd./Yanji St."},"geometry":{"type":"Point","coordinates":[121.555769,25.037465]}},{"type":"Feature","properties":{"ID":188,"Name":"Taipei Municipal Shezi Elementary School","Address":"Sec. 6, Yanping N. Rd./Shezhong St."},"geometry":{"type":"Point","coordinates":[121.50189,25.090293]}},{"type":"Feature","properties":{"ID":189,"Name":"JinRui Park","Address":"No.7, Aly. 1, Ln. 213, Jinlong Rd."},"geometry":{"type":"Point","coordinates":[121.58781,25.087987]}},{"type":"Feature","properties":{"ID":190,"Name":"MRT Dazhi Sta. (Exit 3)","Address":"Aly. 41, Ln. 458, Bei��an Rd./Ln. 536, Bei��an Rd."},"geometry":{"type":"Point","coordinates":[121.546683,25.079278]}},{"type":"Feature","properties":{"ID":191,"Name":"MRT Dahu Park Sta. (Exit 2)","Address":"Sec. 5, Chenggong Rd./Dahu Shanzhuang St."},"geometry":{"type":"Point","coordinates":[121.60206,25.083873]}},{"type":"Feature","properties":{"ID":192,"Name":"MRT Huzhou Sta. (Exit 1)","Address":"Sec. 3, Kangning Rd./Aly. 21, Ln. 450, Sec. 5, Chenggong Rd."},"geometry":{"type":"Point","coordinates":[121.607955,25.072485]}},{"type":"Feature","properties":{"ID":193,"Name":"Jiuzhuang Recreation Center","Address":"Ln. 91, Sec. 1, Jiuzhuang St./Aly. 12, Ln. 91, Sec. 1, Jiuzhuang St."},"geometry":{"type":"Point","coordinates":[121.61935,25.041277]}},{"type":"Feature","properties":{"ID":194,"Name":"Civic Blvd Linsen Intersection","Address":"Sec. 2, Civic Blvd./Linsen N. Rd."},"geometry":{"type":"Point","coordinates":[121.524388,25.047958]}},{"type":"Feature","properties":{"ID":195,"Name":"Xinyi Hangzhou Intersection(Chunghwa Telecom)","Address":"Sec. 1, Xinyi Rd./Sec. 1, Hangzhou S. Rd."},"geometry":{"type":"Point","coordinates":[121.523987,25.035851]}},{"type":"Feature","properties":{"ID":196,"Name":"Xinhu Elementary School","Address":"Sec. 6, Minquan E. Rd./Aly. 31, Ln. 320, Sec. 2, Chenggong Rd."},"geometry":{"type":"Point","coordinates":[121.589233,25.068744]}},{"type":"Feature","properties":{"ID":197,"Name":"Raohe Night Market","Address":"The S.W. side of St.Wuchang & Road Longjiang."},"geometry":{"type":"Point","coordinates":[121.571885,25.049845]}},{"type":"Feature","properties":{"ID":201,"Name":"Dongyang Park","Address":"No.26 to No. 36-2, Ln. 125, Chongyang Rd. (opposite)"},"geometry":{"type":"Point","coordinates":[121.597924,25.057164]}},{"type":"Feature","properties":{"ID":202,"Name":"MRT Guandu Sta.","Address":"Ln. 270, Sec. 3, Dadu Rd./Ln. 55, Ligong St."},"geometry":{"type":"Point","coordinates":[121.467336,25.124646]}},{"type":"Feature","properties":{"ID":203,"Name":"Guting Junior High School","Address":"No.465, Sec. 2, Zhonghua Rd. (opposite)"},"geometry":{"type":"Point","coordinates":[121.51057,25.024487]}},{"type":"Feature","properties":{"ID":204,"Name":"University of Taipei Tianmu Campus","Address":"No.276 to No. 280, Shidong Rd., (opposite)"},"geometry":{"type":"Point","coordinates":[121.53742,25.113625]}},{"type":"Feature","properties":{"ID":205,"Name":"Mucha Guanghui Intersection","Address":"No.290, Sec. 1, Muzha Rd."},"geometry":{"type":"Point","coordinates":[121.55561,24.988241]}},{"type":"Feature","properties":{"ID":206,"Name":"MRT Xinhai Sta.","Address":"No.114, Sec. 4, Xinhai Rd."},"geometry":{"type":"Point","coordinates":[121.55716,25.005386]}},{"type":"Feature","properties":{"ID":207,"Name":"Fu-an Junior Hight School","Address":"No.250, Sec. 7, Yanping N. Rd."},"geometry":{"type":"Point","coordinates":[121.487477,25.103242]}},{"type":"Feature","properties":{"ID":208,"Name":"Longshan Elementary School","Address":"No.280, Sec. 3, Heping W. Rd. (opposite)"},"geometry":{"type":"Point","coordinates":[121.495342,25.035555]}},{"type":"Feature","properties":{"ID":209,"Name":"MRT Fuxinggang Sta.","Address":"No.17-1, Sec. 3, Zhongyang N. Rd. (opposite)"},"geometry":{"type":"Point","coordinates":[121.486071,25.137837]}},{"type":"Feature","properties":{"ID":210,"Name":"Lequn 2nd & Jingye 4th Intersection","Address":"No.180, Lequn 2nd Rd."},"geometry":{"type":"Point","coordinates":[121.558135,25.079766]}},{"type":"Feature","properties":{"ID":211,"Name":"Xingyun & Jinhu Intersection","Address":"No.11, Ln. 210, Xingyun St."},"geometry":{"type":"Point","coordinates":[121.597339,25.080915]}},{"type":"Feature","properties":{"ID":212,"Name":"Bei'an & Dazhi Intersection","Address":"No.676, Bei��an Rd."},"geometry":{"type":"Point","coordinates":[121.549452,25.084223]}},{"type":"Feature","properties":{"ID":213,"Name":"Lanya Elementary School","Address":"No.80 to No.82, Huangxi St. (opposite)"},"geometry":{"type":"Point","coordinates":[121.523107,25.107782]}},{"type":"Feature","properties":{"ID":214,"Name":"Jihe First Phase Republic Housing","Address":"No.131 to No.137, Sec. 6, Nanjing E. Rd. (opposite)"},"geometry":{"type":"Point","coordinates":[121.578645,25.055935]}},{"type":"Feature","properties":{"ID":215,"Name":"MRT Beimen Sta. (Exit.3)","Address":"Zhengzhou Rd./Tacheng St.(southwest)"},"geometry":{"type":"Point","coordinates":[121.510367,25.04993]}},{"type":"Feature","properties":{"ID":216,"Name":"Peiying Park","Address":"Chongshi Rd./Dazhi St. (southeast)"},"geometry":{"type":"Point","coordinates":[121.544601,25.082553]}},{"type":"Feature","properties":{"ID":217,"Name":"Taipei Flowers Auction","Address":"No.28, Xinhu 3rd Rd."},"geometry":{"type":"Point","coordinates":[121.574267,25.062645]}},{"type":"Feature","properties":{"ID":218,"Name":"SONG-SHAN Senior High School","Address":"No.15, Ln. 172, Sec. 1, Keelung Rd. (opposite)"},"geometry":{"type":"Point","coordinates":[121.564108,25.043299]}},{"type":"Feature","properties":{"ID":219,"Name":"Dali High School","Address":"No.300, Sec. 2, Huanhe S. Rd. (opposite)"},"geometry":{"type":"Point","coordinates":[121.49074,25.031147]}},{"type":"Feature","properties":{"ID":220,"Name":"Dadaocheng Park","Address":"No.15, Ln. 1, Anxi St. (opposite)"},"geometry":{"type":"Point","coordinates":[121.510512,25.059162]}},{"type":"Feature","properties":{"ID":221,"Name":"Taihe Park","Address":"No.5, Aly. 67, Ln. 600, Wuxing St. (opposite)"},"geometry":{"type":"Point","coordinates":[121.57107,25.019276]}},{"type":"Feature","properties":{"ID":222,"Name":"Fushun Park","Address":"No.180, Sec. 2, Zhongshan N. Rd. (opposite)"},"geometry":{"type":"Point","coordinates":[121.522065,25.064108]}},{"type":"Feature","properties":{"ID":223,"Name":"Qingjiang Elementary School","Address":"Sec. 1, Sanhe St./Gongguan Rd."},"geometry":{"type":"Point","coordinates":[121.507267,25.1274]}},{"type":"Feature","properties":{"ID":224,"Name":"Shezheng Park","Address":"No.43, Shezhong St. (opposite)"},"geometry":{"type":"Point","coordinates":[121.510535,25.088243]}},{"type":"Feature","properties":{"ID":225,"Name":"Wolong & Leye Intersection","Address":"No.267, Wolong St. (opposite)"},"geometry":{"type":"Point","coordinates":[121.554839,25.0186]}},{"type":"Feature","properties":{"ID":226,"Name":"Xiangyang & Nangang Intersection","Address":"No.49, Xiangyang Rd."},"geometry":{"type":"Point","coordinates":[121.594228,25.054365]}},{"type":"Feature","properties":{"ID":227,"Name":"LiShan High School","Address":"No.131, Sec. 2, Huanshan Rd. (opposite)"},"geometry":{"type":"Point","coordinates":[121.57668,25.084244]}},{"type":"Feature","properties":{"ID":228,"Name":"MRT Wanfang Community Sta.","Address":"No.60, Wanfang Rd. (west side)"},"geometry":{"type":"Point","coordinates":[121.567474,24.998956]}},{"type":"Feature","properties":{"ID":229,"Name":"Civic & Taiyuan Intersection","Address":"No.23, Zhengzhou Rd. (east side)"},"geometry":{"type":"Point","coordinates":[121.514611,25.049394]}},{"type":"Feature","properties":{"ID":230,"Name":"Huguang Republic Housing","Address":"No.67, Ln. 22, Wende Rd. (opposite)"},"geometry":{"type":"Point","coordinates":[121.580811,25.075366]}},{"type":"Feature","properties":{"ID":231,"Name":"Construction & Planning Agency","Address":"No.342, Sec. 2, Bade Rd. (east side)"},"geometry":{"type":"Point","coordinates":[121.545022,25.047805]}},{"type":"Feature","properties":{"ID":232,"Name":"Zhongshan & Tianmu Intersection","Address":"No.3-55, Tianmu W. Rd."},"geometry":{"type":"Point","coordinates":[121.529738,25.118843]}},{"type":"Feature","properties":{"ID":233,"Name":"MRT Zhongyi Sta.","Address":"No.262, Sec. 4, Zhongyang N. Rd. (opposite)"},"geometry":{"type":"Point","coordinates":[121.474155,25.131411]}},{"type":"Feature","properties":{"ID":234,"Name":"Yongxin Green Area","Address":"No.1, Xingyi Rd. (opposite)"},"geometry":{"type":"Point","coordinates":[121.526071,25.124162]}},{"type":"Feature","properties":{"ID":235,"Name":"Civic Blvd & Dongxing Intersection","Address":"No.193, Sec. 5, Civic Blvd."},"geometry":{"type":"Point","coordinates":[121.565928,25.04846]}},{"type":"Feature","properties":{"ID":236,"Name":"Guandu Nature Park","Address":"No.68, Guandu Rd. (opposite)"},"geometry":{"type":"Point","coordinates":[121.469138,25.119292]}},{"type":"Feature","properties":{"ID":237,"Name":"Wenshan 2nd District Office","Address":"No.30, Ln. 130, Sec. 2, Xinglong Rd. (opposite)"},"geometry":{"type":"Point","coordinates":[121.551418,25.001149]}},{"type":"Feature","properties":{"ID":238,"Name":"Ruihu & Yangguang Intersection","Address":"No.101, Ruihu St. (opposite)"},"geometry":{"type":"Point","coordinates":[121.575965,25.073119]}},{"type":"Feature","properties":{"ID":239,"Name":"Ln. 321, Xinming Rd.","Address":"No.323, Xinming Rd."},"geometry":{"type":"Point","coordinates":[121.584098,25.056687]}},{"type":"Feature","properties":{"ID":240,"Name":"Nanjing Jianguo Intersection","Address":"Sec. 2, Nanjing E. Rd./Sec. 2, Jianguo N. Rd."},"geometry":{"type":"Point","coordinates":[121.536802,25.052141]}},{"type":"Feature","properties":{"ID":241,"Name":"Linkou Park","Address":"No.72, Linkou St. (opposite)"},"geometry":{"type":"Point","coordinates":[121.579146,25.038943]}},{"type":"Feature","properties":{"ID":242,"Name":"Kuantu Temple","Address":"No.223-5, Sec. 3, Dadu Rd."},"geometry":{"type":"Point","coordinates":[121.463161,25.117472]}},{"type":"Feature","properties":{"ID":243,"Name":"Shezi Park","Address":"Aly. 37, Ln. 20, Yongping St./Aly. 11, Ln. 20, Yongping St."},"geometry":{"type":"Point","coordinates":[121.506219,25.090202]}},{"type":"Feature","properties":{"ID":244,"Name":"Fuxing & Civic Intersection","Address":"No.36-9, Sec. 1, Fuxing S. Rd."},"geometry":{"type":"Point","coordinates":[121.543736,25.045908]}},{"type":"Feature","properties":{"ID":245,"Name":"MRT Zhongshan Junior High School Sta.","Address":"No.370, Fuxing N. Rd."},"geometry":{"type":"Point","coordinates":[121.544028,25.060632]}},{"type":"Feature","properties":{"ID":246,"Name":"National Palace Museum","Address":"No.155, Sec. 2, Zhishan Rd.(oppsite)"},"geometry":{"type":"Point","coordinates":[121.548086,25.098743]}},{"type":"Feature","properties":{"ID":247,"Name":"Mucha Park","Address":"No.50, Sec. 4, Xinglong Rd."},"geometry":{"type":"Point","coordinates":[121.560627,24.987144]}},{"type":"Feature","properties":{"ID":248,"Name":"George Cocational High School of Taipei","Address":"No.166, Sec. 2, Keelung Rd."},"geometry":{"type":"Point","coordinates":[121.555566,25.027123]}},{"type":"Feature","properties":{"ID":249,"Name":"Zhonghua & Guilin Intersection","Address":"No.206, Sec. 1, Zhonghua Rd."},"geometry":{"type":"Point","coordinates":[121.506624,25.037706]}},{"type":"Feature","properties":{"ID":250,"Name":"Ln. 217, Sec. 3, Zhongxiao E. Rd","Address":"No.221, Sec. 3, Zhongxiao E. Rd."},"geometry":{"type":"Point","coordinates":[121.539873,25.04184]}},{"type":"Feature","properties":{"ID":251,"Name":"Hualing Park","Address":"No.80, Jiantan Rd.(oppsite)"},"geometry":{"type":"Point","coordinates":[121.520692,25.083023]}},{"type":"Feature","properties":{"ID":252,"Name":"Daan Sports Center","Address":"No.55, Sec. 3, Xinhai Rd."},"geometry":{"type":"Point","coordinates":[121.545608,25.020544]}},{"type":"Feature","properties":{"ID":253,"Name":"Zhishan Pumping Sta.","Address":"No.80, Sec. 2, Zhicheng Rd.(oppsite)"},"geometry":{"type":"Point","coordinates":[121.52799,25.101423]}},{"type":"Feature","properties":{"ID":254,"Name":"Ligong Lide Intersection","Address":"Ligong St./Lide Rd."},"geometry":{"type":"Point","coordinates":[121.471482,25.125377]}},{"type":"Feature","properties":{"ID":255,"Name":"Ln. 22, Guangfu S. Rd.","Address":"No.23, Guangfu S. Rd.(oppsite)"},"geometry":{"type":"Point","coordinates":[121.557674,25.046914]}},{"type":"Feature","properties":{"ID":256,"Name":"Zhongshan & Zhongzheng  Intersection","Address":"No.609 to No.625, Sec. 5, Zhongshan N. Rd."},"geometry":{"type":"Point","coordinates":[121.527526,25.096507]}},{"type":"Feature","properties":{"ID":257,"Name":"Jinde Park","Address":"No.243, Dechang St.(oppsite)"},"geometry":{"type":"Point","coordinates":[121.492637,25.023316]}},{"type":"Feature","properties":{"ID":258,"Name":"Taipei City Hospital (Zhongxing Branch)","Address":"No.299-2, Chang��an W. Rd.(oppsite)"},"geometry":{"type":"Point","coordinates":[121.507979,25.052096]}},{"type":"Feature","properties":{"ID":259,"Name":"Nanjing & Liaoning Intersection","Address":"No.189, Sec. 3, Nanjing E. Rd.(oppsite)"},"geometry":{"type":"Point","coordinates":[121.542168,25.051761]}},{"type":"Feature","properties":{"ID":260,"Name":"Minquan & Ruiguang Intersection","Address":"No.50, Sec. 6, Minquan E. Rd."},"geometry":{"type":"Point","coordinates":[121.583991,25.068616]}},{"type":"Feature","properties":{"ID":261,"Name":"Jiankang New Village","Address":"No.177, Jiankang Rd."},"geometry":{"type":"Point","coordinates":[121.560928,25.054095]}},{"type":"Feature","properties":{"ID":262,"Name":"YONG AN ART CENTER - Performing Arts School 36","Address":"No.156, Sec. 2, Muxin Rd."},"geometry":{"type":"Point","coordinates":[121.569064,24.984144]}},{"type":"Feature","properties":{"ID":263,"Name":"Zhishan Linxi Intersection","Address":"Sec. 1, Zhishan Rd./ Linxi Rd. intersection"},"geometry":{"type":"Point","coordinates":[121.542153,25.097103]}},{"type":"Feature","properties":{"ID":264,"Name":"Xiushan Community Center","Address":"No.50, Xiushan Rd."},"geometry":{"type":"Point","coordinates":[121.493009,25.145936]}},{"type":"Feature","properties":{"ID":265,"Name":"Ln. 30, Sec. 4, Zhongyang N. Rd.","Address":"No.8, Ln. 30, Sec. 4, Zhongyang N. Rd."},"geometry":{"type":"Point","coordinates":[121.478,25.135394]}},{"type":"Feature","properties":{"ID":266,"Name":"Zhouzhi Park No.1","Address":"No.32, Jihu Rd."},"geometry":{"type":"Point","coordinates":[121.564806,25.080258]}},{"type":"Feature","properties":{"ID":267,"Name":"Bade & Zhongpo Intersection","Address":"No.869, Sec. 4, Bade Rd."},"geometry":{"type":"Point","coordinates":[121.580194,25.05062]}},{"type":"Feature","properties":{"ID":268,"Name":"Nangang Vocational High School","Address":"No.29, Xingzhong Rd."},"geometry":{"type":"Point","coordinates":[121.607055,25.056655]}},{"type":"Feature","properties":{"ID":269,"Name":"Tri-Service General Hospital","Address":"Sec. 2, Chenggong Rd./Ln. 323, Sec. 2, Chenggong Rd.(Intersection)"},"geometry":{"type":"Point","coordinates":[121.590304,25.070723]}},{"type":"Feature","properties":{"ID":270,"Name":"Yu Nong Elementary School","Address":"No.6, Zhongyi St.(oppsite)"},"geometry":{"type":"Point","coordinates":[121.529217,25.105429]}},{"type":"Feature","properties":{"ID":271,"Name":"Yitong & Chang'an Intersection","Address":"Yitong St./Sec. 2, Chang��an E. Rd. intersection(Southwest)"},"geometry":{"type":"Point","coordinates":[121.534693,25.048334]}},{"type":"Feature","properties":{"ID":272,"Name":"Zhongshun Public Places","Address":"No.22, Sec. 2, Zhongshun St."},"geometry":{"type":"Point","coordinates":[121.563125,24.984707]}},{"type":"Feature","properties":{"ID":273,"Name":"Zhishan Elementary School","Address":"Dexing E. Rd./Ln. 283, Dexing E. Rd.Intersection(northeast)"},"geometry":{"type":"Point","coordinates":[121.535954,25.110437]}},{"type":"Feature","properties":{"ID":274,"Name":"Rotary Park","Address":"No.13-15, Sec. 6, Minquan E. Rd."},"geometry":{"type":"Point","coordinates":[121.579833,25.066997]}},{"type":"Feature","properties":{"ID":275,"Name":"Nishi Honganji Square","Address":"Sec. 1, Zhonghua Rd./Sec. 2, Changsha St. intersection(Southwest)"},"geometry":{"type":"Point","coordinates":[121.507688,25.040988]}},{"type":"Feature","properties":{"ID":276,"Name":"Sanxing Park","Address":"No.28, Aly. 35, Ln. 118, Wuxing St."},"geometry":{"type":"Point","coordinates":[121.55932,25.028679]}},{"type":"Feature","properties":{"ID":277,"Name":"Zhongshan Hall","Address":"Yanping S. Rd./Sec. 1, Wuchang St. intersection(southeast)"},"geometry":{"type":"Point","coordinates":[121.51025,25.044091]}},{"type":"Feature","properties":{"ID":278,"Name":"MingMei Park","Address":"Shitan Rd./Ln. 451, Sec. 6, Nanjing E. Rd. intersection(southwest)"},"geometry":{"type":"Point","coordinates":[121.586065,25.062557]}},{"type":"Feature","properties":{"ID":279,"Name":"Nangang Rail Sta.(Xinhua Rd.)","Address":"Sec. 8, Civic Blvd./Xinghua Rd. intersection"},"geometry":{"type":"Point","coordinates":[121.606331,25.053432]}},{"type":"Feature","properties":{"ID":280,"Name":"Shilin New Village","Address":"No.325, Danan Rd."},"geometry":{"type":"Point","coordinates":[121.51732,25.089034]}},{"type":"Feature","properties":{"ID":281,"Name":"Songjiang Park","Address":"Songjiang Rd./Ln. 84, Songjiang Rd. intersecton"},"geometry":{"type":"Point","coordinates":[121.532725,25.050245]}},{"type":"Feature","properties":{"ID":282,"Name":"Futai Park","Address":"No.209, Songxin Rd."},"geometry":{"type":"Point","coordinates":[121.571999,25.041935]}},{"type":"Feature","properties":{"ID":283,"Name":"Ln. 540, Sec. 4, Zhongyang N. Rd.","Address":"No.529, Sec. 4, Zhongyang N. Rd."},"geometry":{"type":"Point","coordinates":[121.4677,25.127959]}},{"type":"Feature","properties":{"ID":284,"Name":"Huasheng Park","Address":"No.17, Huasheng St."},"geometry":{"type":"Point","coordinates":[121.522096,25.096166]}},{"type":"Feature","properties":{"ID":285,"Name":"Ying-Qiao Elementary school","Address":"No.32, Quanzhou St.(oppsite)"},"geometry":{"type":"Point","coordinates":[121.51377,25.025966]}},{"type":"Feature","properties":{"ID":286,"Name":"Takming University of Science and Technology","Address":"No.56, Sec. 1, Huanshan Rd."},"geometry":{"type":"Point","coordinates":[121.565713,25.086372]}},{"type":"Feature","properties":{"ID":287,"Name":"Taipei Second Fruits and Vegetables Wholesale Market","Address":"No.1, Ln. 410, Minzu E. Rd."},"geometry":{"type":"Point","coordinates":[121.538264,25.067558]}},{"type":"Feature","properties":{"ID":288,"Name":"Jinan & Shaosing Intersection","Address":"Sec. 1, Jinan Rd / Shaoxing S. St. ( Southeast )"},"geometry":{"type":"Point","coordinates":[121.524591,25.041928]}},{"type":"Feature","properties":{"ID":289,"Name":"Guling Park","Address":"Xiamen St. / Guling St. ( East )"},"geometry":{"type":"Point","coordinates":[121.518835,25.023377]}},{"type":"Feature","properties":{"ID":290,"Name":"Xinsheng Park","Address":"Minzu E. Rd. / Jilin Rd. ( Northwest )"},"geometry":{"type":"Point","coordinates":[121.530188,25.068387]}},{"type":"Feature","properties":{"ID":291,"Name":"MRT Songshan Sta.(Exit.3)","Address":"Songshan Rd. / Sec. 6, Civic Blvd. ( Northwest ) MRT Ex.3"},"geometry":{"type":"Point","coordinates":[121.577459,25.049616]}},{"type":"Feature","properties":{"ID":292,"Name":"Hesin Square","Address":"No.80, Yucheng St.(oppsite)"},"geometry":{"type":"Point","coordinates":[121.582848,25.046361]}},{"type":"Feature","properties":{"ID":293,"Name":"Taipei Water Park","Address":"No.16, Siyuan St.(oppsite)"},"geometry":{"type":"Point","coordinates":[121.530037,25.013284]}},{"type":"Feature","properties":{"ID":294,"Name":"Zhulun Market","Address":"No.15, Longjiang Rd."},"geometry":{"type":"Point","coordinates":[121.540431,25.047617]}},{"type":"Feature","properties":{"ID":295,"Name":"Dunqing Park","Address":"No.8-1, Ln. 96, Sec. 2, Heping E. Rd."},"geometry":{"type":"Point","coordinates":[121.541083,25.023473]}},{"type":"Feature","properties":{"ID":296,"Name":"Wanhe Park No. 2","Address":"No.255, Wanlong St.(oppsite)"},"geometry":{"type":"Point","coordinates":[121.536446,25.001545]}},{"type":"Feature","properties":{"ID":297,"Name":"Changsha Park","Address":"No.280-1, Sec. 1, Huanhe S. Rd."},"geometry":{"type":"Point","coordinates":[121.499922,25.041702]}},{"type":"Feature","properties":{"ID":298,"Name":"Taiyuan & Wuyuan Intersection","Address":"Taiyuan Rd. / Wuyuan Rd. Intersection"},"geometry":{"type":"Point","coordinates":[121.516976,25.056458]}},{"type":"Feature","properties":{"ID":299,"Name":"Wanhua Junior High School ","Address":"Xizang Rd. / Ln. 299, Juguang Rd. Intersection"},"geometry":{"type":"Point","coordinates":[121.499358,25.029264]}},{"type":"Feature","properties":{"ID":300,"Name":"Xinyi & Keelung Intersection","Address":"No.401, Sec. 4, Xinyi Rd."},"geometry":{"type":"Point","coordinates":[121.558731,25.033209]}},{"type":"Feature","properties":{"ID":301,"Name":"Linsen & Changchun Intersection","Address":"Linsen N. Rd. / Changchun Rd. Intersetion"},"geometry":{"type":"Point","coordinates":[121.525383,25.055062]}},{"type":"Feature","properties":{"ID":302,"Name":"Dunbei Park","Address":"Dunhua N. Rd. / Fujin St. Intersection"},"geometry":{"type":"Point","coordinates":[121.550711,25.060746]}},{"type":"Feature","properties":{"ID":303,"Name":"Ln. 83, Antai St.","Address":"No.3, Ln. 83, Antai St. ( oppsite )"},"geometry":{"type":"Point","coordinates":[121.617085,25.076691]}},{"type":"Feature","properties":{"ID":304,"Name":"Jinhua Park","Address":"No.251, Jinhua St."},"geometry":{"type":"Point","coordinates":[121.531235,25.029902]}},{"type":"Feature","properties":{"ID":305,"Name":"Bishan Park","Address":"No.1, Aly. 8, Ln. 60, Sec. 3, Neihu Rd."},"geometry":{"type":"Point","coordinates":[121.592253,25.087413]}},{"type":"Feature","properties":{"ID":306,"Name":"MRT Guting Sta.(Exit.6)","Address":"Sec. 2, Roosevelt Rd. / Ln. 15, Sec. 2, Roosevelt Rd."},"geometry":{"type":"Point","coordinates":[121.52198,25.027781]}},{"type":"Feature","properties":{"ID":307,"Name":"Renai & Anhe Intersection","Address":"Sec. 4, Ren��ai Rd. / Ln. 222, Sec. 4, Ren��ai Rd."},"geometry":{"type":"Point","coordinates":[121.552076,25.03757]}},{"type":"Feature","properties":{"ID":308,"Name":"Xisong High School","Address":"Ln. 325, Jiankang Rd. / Aly. 12, Ln. 325, Jiankang Rd. "},"geometry":{"type":"Point","coordinates":[121.567127,25.055672]}},{"type":"Feature","properties":{"ID":309,"Name":"Tri-Service General (Songshan Branch)","Address":"Guangfu N. Rd. / Ln. 190, Guangfu N. Rd."},"geometry":{"type":"Point","coordinates":[121.556098,25.05447]}},{"type":"Feature","properties":{"ID":310,"Name":"National Taipei University(Taipei Campus)","Address":"Sec. 3, Minsheng E. Rd. / Aly. 10, Ln. 280, Fuxing N. Rd."},"geometry":{"type":"Point","coordinates":[121.542732,25.057923]}},{"type":"Feature","properties":{"ID":311,"Name":"MRT Zhongxiao Xinsheng Sta.(Exit.2)","Address":"No.123, Sec. 2, Zhongxiao E. Rd.(oppsite)"},"geometry":{"type":"Point","coordinates":[121.532229,25.042392]}},{"type":"Feature","properties":{"ID":312,"Name":"MRT Xinyi Anhe Sta.(Exit.1)","Address":"Sec. 4, Xinyi Rd. / Sec. 1, Anhe Rd."},"geometry":{"type":"Point","coordinates":[121.552787,25.033323]}},{"type":"Feature","properties":{"ID":313,"Name":"Guang Hua Computer Market","Address":"Sec. 3, Civic Blvd. / Sec. 1, Xinsheng N. Rd. intersection"},"geometry":{"type":"Point","coordinates":[121.532738,25.04515]}},{"type":"Feature","properties":{"ID":314,"Name":"Dunhua & Changchun Intersection","Address":"Dunhua N. Rd. / Ln. 120, Dunhua N. Rd."},"geometry":{"type":"Point","coordinates":[121.54872,25.053614]}},{"type":"Feature","properties":{"ID":315,"Name":"MRT Wanlong Sta.(Exit.1)","Address":"Sec. 5, Roosevelt Rd. / Ln. 236, Sec. 5, Roosevelt Rd. intersection"},"geometry":{"type":"Point","coordinates":[121.539037,25.001447]}},{"type":"Feature","properties":{"ID":316,"Name":"Minyou first Park","Address":"Ln. 244, Dunhua N. Rd. / Ln. 160, Sec. 3, Minquan E. Rd. intersection"},"geometry":{"type":"Point","coordinates":[121.54763,25.060911]}},{"type":"Feature","properties":{"ID":317,"Name":"Shuangyuan Junior High School","Address":"Ln. 320, Sec. 2, Xiyuan Rd. / Xingyi St. intersection"},"geometry":{"type":"Point","coordinates":[121.491675,25.026823]}},{"type":"Feature","properties":{"ID":318,"Name":"Chenggong & Jinlong Intersection","Address":"Sec. 4, Chenggong Rd. / Jinlong Rd. intersection"},"geometry":{"type":"Point","coordinates":[121.59484,25.084135]}},{"type":"Feature","properties":{"ID":319,"Name":"Minzu & Linsen Intersection","Address":"Minzu E. Rd. / Linsen N. Rd. intersection"},"geometry":{"type":"Point","coordinates":[121.525322,25.068507]}},{"type":"Feature","properties":{"ID":320,"Name":"MRT Nanjing Sanmin Sta.(Exit.3)","Address":"No.204, Sec. 5, Nanjing E. Rd."},"geometry":{"type":"Point","coordinates":[121.564262,25.051287]}},{"type":"Feature","properties":{"ID":321,"Name":"Juguang & Dapu Intersection","Address":"Juguang Rd. / Dapu St. intersetion"},"geometry":{"type":"Point","coordinates":[121.505085,25.031334]}},{"type":"Feature","properties":{"ID":322,"Name":"Yongsheng Park","Address":""},"geometry":{"type":"Point","coordinates":[121.52504,25.058835]}},{"type":"Feature","properties":{"ID":323,"Name":"Xinxing Park","Address":"Ln. 13, Jinzhou St. / Ln. 137, Sec. 2, Zhongshan N. Rd."},"geometry":{"type":"Point","coordinates":[121.524392,25.061568]}},{"type":"Feature","properties":{"ID":324,"Name":"Taipei Public Library Huludu Branch","Address":"No.4, Ln. 136, Sec. 5, Zhongshan N. Rd.(oppsite)"},"geometry":{"type":"Point","coordinates":[121.5108,25.08221]}},{"type":"Feature","properties":{"ID":325,"Name":"Ln. 368, Sec. 6, Nanjing E. Rd.","Address":"No.30, Ln. 368, Sec. 6, Nanjing E. Rd."},"geometry":{"type":"Point","coordinates":[121.58707,25.05827]}},{"type":"Feature","properties":{"ID":326,"Name":"Ln. 101,Sec. 1,Keelung Rd.","Address":"Sec. 1, Keelung Rd. /  Ln. 101, Sec. 1, Keelung Rd. (intersection)"},"geometry":{"type":"Point","coordinates":[121.56709,25.04525]}},{"type":"Feature","properties":{"ID":327,"Name":"Chongqing & Nanhai Intersection","Address":"No.45, Sec. 2, Chongqing S. Rd."},"geometry":{"type":"Point","coordinates":[121.51464,25.03158]}},{"type":"Feature","properties":{"ID":328,"Name":"Yijiang Park","Address":"Yijiang St. /  Ln. 132, Songjiang Rd. intersection"},"geometry":{"type":"Point","coordinates":[121.53146,25.05316]}},{"type":"Feature","properties":{"ID":329,"Name":"Lequn 2nd & Mingshui Intersection","Address":"Lequn 2nd Rd. / Mingshui Rd. intersetion"},"geometry":{"type":"Point","coordinates":[121.55236,25.07983]}},{"type":"Feature","properties":{"ID":330,"Name":"Dihua Park","Address":"No.200, Sec. 4, Yanping N. Rd."},"geometry":{"type":"Point","coordinates":[121.5115,25.07491]}},{"type":"Feature","properties":{"ID":331,"Name":"Minzu & Yumen Intersection","Address":"Minsheng W. Rd. / Ln. 31, Minsheng W. Rd. intersection"},"geometry":{"type":"Point","coordinates":[121.51974,25.06859]}},{"type":"Feature","properties":{"ID":332,"Name":"MRT Zhongshan Sta. (Exit 2)","Address":"No.6, Nanjing W. Rd."},"geometry":{"type":"Point","coordinates":[121.52193,25.05225]}},{"type":"Feature","properties":{"ID":333,"Name":"Fusheng Park","Address":"No.2, Aly. 6, Ln. 106, Sec. 4, Bade Rd."},"geometry":{"type":"Point","coordinates":[121.561182,25.047428]}},{"type":"Feature","properties":{"ID":334,"Name":"Ln. 103,Sec. 2,Dunhua S. Rd.","Address":"No.97, Sec. 2, Dunhua S. Rd."},"geometry":{"type":"Point","coordinates":[121.549024,25.028973]}},{"type":"Feature","properties":{"ID":335,"Name":"Jingwen High School","Address":"Baoyi Rd. / Ln. 102, Sec. 3, Muzha Rd. ( Intersection )"},"geometry":{"type":"Point","coordinates":[121.567855,24.986301]}},{"type":"Feature","properties":{"ID":336,"Name":"Ln. 8,Sec. 3,Chengde Rd.","Address":"No.12, Sec. 3, Chengde Rd."},"geometry":{"type":"Point","coordinates":[121.51815,25.06382]}},{"type":"Feature","properties":{"ID":337,"Name":"Rainbow Bridge","Address":"No.27, Tanmei St."},"geometry":{"type":"Point","coordinates":[121.57592,25.05301]}},{"type":"Feature","properties":{"ID":338,"Name":"Chengde Junior High School","Address":"No.10-1, Ln. 108, Dongxin St."},"geometry":{"type":"Point","coordinates":[121.58794,25.04573]}},{"type":"Feature","properties":{"ID":339,"Name":"Chongcing Junior High School","Address":"No.68, Dunhuang Rd."},"geometry":{"type":"Point","coordinates":[121.51816,25.07581]}},{"type":"Feature","properties":{"ID":340,"Name":"Nanjing Guangfu Intersection","Address":"No.182, Sec. 4, Nanjing E. Rd."},"geometry":{"type":"Point","coordinates":[121.55716,25.05143]}},{"type":"Feature","properties":{"ID":341,"Name":"MRT Zhishan Sta.(Exit.1)","Address":"Wenlin Rd. / Fuhua Rd. Intersection"},"geometry":{"type":"Point","coordinates":[121.52243,25.10094]}},{"type":"Feature","properties":{"ID":342,"Name":"Wenlin & Jianmin Intersection","Address":"No.224 - 238, Wenlin N. Rd."},"geometry":{"type":"Point","coordinates":[121.51468,25.10779]}},{"type":"Feature","properties":{"ID":343,"Name":"Ln. 185, Sec. 6, Zhongxiao E. Rd","Address":"No.187, Sec. 6, Zhongxiao E. Rd."},"geometry":{"type":"Point","coordinates":[121.58755,25.04904]}},{"type":"Feature","properties":{"ID":344,"Name":"MRT Zhongxiao Fuxing Sta.(Exit.5)","Address":"No.133, Sec. 1, Fuxing S. Rd."},"geometry":{"type":"Point","coordinates":[121.54401,25.04264]}},{"type":"Feature","properties":{"ID":345,"Name":"Zhongzheng Sports Center","Address":"No.1, Sec. 1, Xinyi Rd."},"geometry":{"type":"Point","coordinates":[121.51943,25.03806]}},{"type":"Feature","properties":{"ID":346,"Name":"Yangming High School","Address":"No.510, Zhongzheng Rd."},"geometry":{"type":"Point","coordinates":[121.51669,25.09157]}},{"type":"Feature","properties":{"ID":347,"Name":"Boai & Baoqing Intersection","Address":"Bo��ai Rd. / Baoqing Rd. intersection"},"geometry":{"type":"Point","coordinates":[121.51135,25.04134]}},{"type":"Feature","properties":{"ID":348,"Name":"Minsheng Parking Lot","Address":"No.82, Sec. 5, Minsheng E. Rd."},"geometry":{"type":"Point","coordinates":[121.55945,25.05794]}},{"type":"Feature","properties":{"ID":349,"Name":"Chongqing & Jiuquan Intersection","Address":"No.272, Sec. 3, Chongqing N. Rd."},"geometry":{"type":"Point","coordinates":[121.51364,25.07183]}},{"type":"Feature","properties":{"ID":350,"Name":"Ln. 128, Sec. 2, Fuxing S. Rd.","Address":"No.144-3, Sec. 2, Fuxing S. Rd."},"geometry":{"type":"Point","coordinates":[121.54336,25.02904]}},{"type":"Feature","properties":{"ID":351,"Name":"Zhongshan & Qingdao Intersection","Address":"Zhongshan S. Rd. / Qingdao E. Rd. intersection"},"geometry":{"type":"Point","coordinates":[121.51954,25.04469]}},{"type":"Feature","properties":{"ID":352,"Name":"Minquan & Dihua Intersection","Address":"No.351, Sec. 1, Dihua St."},"geometry":{"type":"Point","coordinates":[121.50944,25.06318]}},{"type":"Feature","properties":{"ID":353,"Name":"Kishu An Forest of Literature","Address":"No.107, Tong��an St."},"geometry":{"type":"Point","coordinates":[121.52049,25.02088]}},{"type":"Feature","properties":{"ID":354,"Name":"Jianguo & Jinan Intersection","Address":"Sec. 1, Jianguo S. Rd. / Sec. 3, Jinan Rd. intersection"},"geometry":{"type":"Point","coordinates":[121.538084,25.040033]}},{"type":"Feature","properties":{"ID":355,"Name":"Fushan Park","Address":"No.15, Ln. 61, Sec. 2, Academia Rd."},"geometry":{"type":"Point","coordinates":[121.61759,25.04478]}},{"type":"Feature","properties":{"ID":356,"Name":"Taipei Tennis Center","Address":"Sec. 6, Minquan E. Rd. / Ln. 210, Sec. 6, Minquan E. Rd. intersection"},"geometry":{"type":"Point","coordinates":[121.59749,25.0674]}},{"type":"Feature","properties":{"ID":357,"Name":"@Songyou Park","Address":"No.16, Aly. 2, Ln. 76, Sec. 6, Xinyi Rd."},"geometry":{"type":"Point","coordinates":[121.57636,25.03423]}},{"type":"Feature","properties":{"ID":358,"Name":"Xinming & Chenggong Intersection","Address":"Xinming Rd. / Sec. 2, Chenggong Rd. intersection"},"geometry":{"type":"Point","coordinates":[121.5911,25.06058]}},{"type":"Feature","properties":{"ID":359,"Name":"Jianan Sincheng","Address":"No.41, Sanmin Rd. "},"geometry":{"type":"Point","coordinates":[121.56358,25.05601]}},{"type":"Feature","properties":{"ID":360,"Name":"Minquan & Jianguo Intersection","Address":"Sec. 3, Minquan E. Rd. / Sec. 3, Jianguo N. Rd. intersection"},"geometry":{"type":"Point","coordinates":[121.53754,25.06252]}},{"type":"Feature","properties":{"ID":361,"Name":"Cheng Hsin General Hospital","Address":"No.41, Zhenxing St. / No.41, Mingde Rd. intersection"},"geometry":{"type":"Point","coordinates":[121.5222,25.1177]}},{"type":"Feature","properties":{"ID":362,"Name":"Heping & Jinshan Intersection","Address":"Sec. 1, Heping E. Rd. / Sec. 2, Jinshan S. Rd. intersection"},"geometry":{"type":"Point","coordinates":[121.52533,25.02672]}},{"type":"Feature","properties":{"ID":363,"Name":"Ln. 340, Sec. 1, Fuxing S. Rd.","Address":"No.322, Sec. 1, Fuxing S. Rd."},"geometry":{"type":"Point","coordinates":[121.5435,25.03617]}},{"type":"Feature","properties":{"ID":364,"Name":"Jiaxing Park","Address":"Ln. 101, Leye St. / Leye St. intersection"},"geometry":{"type":"Point","coordinates":[121.55219,25.02109]}},{"type":"Feature","properties":{"ID":365,"Name":"National Yang-Ming University","Address":"No.136, Sec. 2, Donghua St."},"geometry":{"type":"Point","coordinates":[121.51223,25.11912]}},{"type":"Feature","properties":{"ID":366,"Name":"Bihu Park","Address":"Sec. 2, Neihu Rd. / Ln. 103, Sec. 2, Neihu Rd. intersection"},"geometry":{"type":"Point","coordinates":[121.58287,25.07988]}},{"type":"Feature","properties":{"ID":367,"Name":"Fengnian Park","Address":"No.539, Daye Rd."},"geometry":{"type":"Point","coordinates":[121.497019,25.13597]}},{"type":"Feature","properties":{"ID":368,"Name":"The Xiqu Center of Taiwan","Address":"No.751, Wenlin Rd."},"geometry":{"type":"Point","coordinates":[121.51979,25.10208]}},{"type":"Feature","properties":{"ID":369,"Name":"Shih Hsin University","Address":"No.1, Ln. 17, Sec. 1, Muzha Rd."},"geometry":{"type":"Point","coordinates":[121.54361,24.98862]}},{"type":"Feature","properties":{"ID":370,"Name":"Xinhe Elementary School","Address":"Ln. 416, Sec. 2, Zhonghua Rd. / Aly. 37, Ln. 277, Wanda Rd. intersection"},"geometry":{"type":"Point","coordinates":[121.50242,25.02656]}},{"type":"Feature","properties":{"ID":371,"Name":"Nanmen Junior High School","Address":"Ln. 8, Guangzhou St. / Guangzhou St. intersection"},"geometry":{"type":"Point","coordinates":[121.50834,25.03532]}},{"type":"Feature","properties":{"ID":372,"Name":"Chongqing & Minzu Intersection","Address":"No.154, Sec. 3, Chongqing N. Rd."},"geometry":{"type":"Point","coordinates":[121.51359,25.06825]}},{"type":"Feature","properties":{"ID":373,"Name":"Zhonglun Fucheng Temple","Address":"No.63, Sec. 4, Civic Blvd."},"geometry":{"type":"Point","coordinates":[121.546635,25.04525]}},{"type":"Feature","properties":{"ID":374,"Name":"Lihu Elementary School","Address":"No.5, Ln. 363, Jinhu Rd."},"geometry":{"type":"Point","coordinates":[121.602225,25.073322]}},{"type":"Feature","properties":{"ID":375,"Name":"Ming Chuan University","Address":"No.250, Sec. 5, Zhongshan N. Rd."},"geometry":{"type":"Point","coordinates":[121.526766,25.087714]}},{"type":"Feature","properties":{"ID":376,"Name":"Minsheng & Jianguo Intersection","Address":"Sec. 3, Minsheng E. Rd. / Sec. 2, Jianguo N. Rd."},"geometry":{"type":"Point","coordinates":[121.536915,25.057778]}},{"type":"Feature","properties":{"ID":377,"Name":"Ln. 178, Sec. 2, Nangang Rd.","Address":"No.146, Sec. 2, Nangang Rd."},"geometry":{"type":"Point","coordinates":[121.599693,25.053675]}},{"type":"Feature","properties":{"ID":378,"Name":"Ln. 321, Yangguang St.","Address":"Ln. 321, Yangguang St. / Yangguang St."},"geometry":{"type":"Point","coordinates":[121.578691,25.073193]}},{"type":"Feature","properties":{"ID":379,"Name":"Chunguang Park","Address":"No.721, Sec. 5, Zhongxiao E. Rd."},"geometry":{"type":"Point","coordinates":[121.580762,25.042619]}},{"type":"Feature","properties":{"ID":380,"Name":"Tayou Evacuation Gate","Address":"Tayou Rd. / Ln. 389, Fuyuan St."},"geometry":{"type":"Point","coordinates":[121.567899,25.064713]}},{"type":"Feature","properties":{"ID":381,"Name":"Ln. 15, Sec. 6, Minquan E. Rd.","Address":"No.35, Ln. 15, Sec. 6, Minquan E. Rd."},"geometry":{"type":"Point","coordinates":[121.578125,25.06853]}},{"type":"Feature","properties":{"ID":382,"Name":"City Hospital (Heping Branch)","Address":"No.33, Sec. 2, Zhonghua Rd."},"geometry":{"type":"Point","coordinates":[121.50639,25.03516]}},{"type":"Feature","properties":{"ID":383,"Name":"Yishou Bridge","Address":"No.64, Zhangxin St."},"geometry":{"type":"Point","coordinates":[121.55545,24.97848]}},{"type":"Feature","properties":{"ID":384,"Name":"Songji Park","Address":"Ln. 339, Changchun Rd. / Ln. 189, Fuxing N. Rd. intersection"},"geometry":{"type":"Point","coordinates":[121.5448,25.05491]}},{"type":"Feature","properties":{"ID":385,"Name":"Ln.26 ,Hexing Rd.","Address":"Ln. 44, Hexing Rd. / Ln. 26, Hexing Rd. intersection"},"geometry":{"type":"Point","coordinates":[121.54531,24.9856]}},{"type":"Feature","properties":{"ID":386,"Name":"Jinzhou & Jilin Intersection","Address":"No.162, Jinzhou St."},"geometry":{"type":"Point","coordinates":[121.52981,25.06029]}},{"type":"Feature","properties":{"ID":387,"Name":"Ln. 260,Wuxing St.","Address":"Ln. 260, Wuxing St. / Aly. 19, Ln. 260, Wuxing St."},"geometry":{"type":"Point","coordinates":[121.56316,25.0261]}},{"type":"Feature","properties":{"ID":388,"Name":"Ln.128,Jinghua St.","Address":"No.126, Jinghua St."},"geometry":{"type":"Point","coordinates":[121.547092,24.995563]}},{"type":"Feature","properties":{"ID":389,"Name":"Fude Elementary School","Address":"No.2, Ln. 251, Fude St."},"geometry":{"type":"Point","coordinates":[121.586245,25.038324]}},{"type":"Feature","properties":{"ID":390,"Name":"Daoxiang & Chongsan Intersection","Address":"Daoxiang Rd. / Ln. 43, Daoxiang Rd."},"geometry":{"type":"Point","coordinates":[121.489594,25.139937]}},{"type":"Feature","properties":{"ID":391,"Name":"Jingren Park","Address":"Jingren St. / Ln. 142, Sec. 6, Roosevelt Rd."},"geometry":{"type":"Point","coordinates":[121.540295,24.9966]}},{"type":"Feature","properties":{"ID":392,"Name":"Nanjing & Dongxing Intersection","Address":"Sec. 5, Nanjing E. Rd. / Dongxing Rd."},"geometry":{"type":"Point","coordinates":[121.565347,25.051489]}},{"type":"Feature","properties":{"ID":393,"Name":"Neigousi Eological Exhibition Hall","Address":"No.236-3, Kangle St."},"geometry":{"type":"Point","coordinates":[121.623062,25.087217]}},{"type":"Feature","properties":{"ID":394,"Name":"Songde & Hulin Intersection","Address":"No.71, Songde Rd."},"geometry":{"type":"Point","coordinates":[121.576248,25.038352]}},{"type":"Feature","properties":{"ID":395,"Name":"Anciang Park","Address":"No.58, Ln. 212, Hulin St."},"geometry":{"type":"Point","coordinates":[121.575413,25.036844]}},{"type":"Feature","properties":{"ID":396,"Name":"Ln.51,Xindong St.","Address":"Sanmin Rd. / Ln. 51, Xindong St. intersection"},"geometry":{"type":"Point","coordinates":[121.563318,25.061501]}},{"type":"Feature","properties":{"ID":397,"Name":"Chientan Overseas Youth Activity Center","Address":"Tonghe St. / Ln. 2, Tonghe St. intersection"},"geometry":{"type":"Point","coordinates":[121.5237,25.079603]}},{"type":"Feature","properties":{"ID":398,"Name":"Taipei City Hospital (Yangming Branch)","Address":"No.105, Yusheng St."},"geometry":{"type":"Point","coordinates":[121.531949,25.104546]}},{"type":"Feature","properties":{"ID":399,"Name":"Heping & Longquan Intersection","Address":"No.178, Sec. 1, Heping E. Rd."},"geometry":{"type":"Point","coordinates":[121.52946,25.026404]}},{"type":"Feature","properties":{"ID":400,"Name":"Heping & Dunhua Intersection","Address":"Sec. 3, Heping E. Rd. / Sec. 2, Dunhua S. Rd. intersection"},"geometry":{"type":"Point","coordinates":[121.549076,25.02444]}},{"type":"Feature","properties":{"ID":401,"Name":"Nanjing & Xinsheng Intersection","Address":"Sec. 1, Xinsheng N. Rd. / Sec. 1, Nanjing E. Rd."},"geometry":{"type":"Point","coordinates":[121.527661,25.051944]}},{"type":"Feature","properties":{"ID":402,"Name":"Siawan Park","Address":"Ln. 206, Sec. 6, Minquan E. Rd. / Aly. 75, Ln. 190, Sec. 6, Minquan E. Rd."},"geometry":{"type":"Point","coordinates":[121.595611,25.065159]}},{"type":"Feature","properties":{"ID":403,"Name":"MRT Neihu Sta.1(Exit.1)","Address":"Ln. 182, Sec. 4, Chenggong Rd. / Aly. 6, Ln. 182, Sec. 4, Chenggong Rd."},"geometry":{"type":"Point","coordinates":[121.593929,25.083868]}},{"type":"Feature","properties":{"ID":404,"Name":"Minzu & Yanping Intersection","Address":"No.310, Minzu W. Rd."},"geometry":{"type":"Point","coordinates":[121.510569,25.068653]}}]}